[
  {
    "type": "medical",
    "name": "Cook County Health",
    "lat": 42.11,
    "lng": -88.01,
    "zip": "60074",
    "address": "1585 N Rand Rd"
  },
  {
    "type": "legal",
    "name": "Legal Aid Chicago",
    "lat": 42.02,
    "lng": -87.95,
    "zip": "60007",
    "address": "Local Office"
  },
  {
    "type": "shelter",
    "name": "Journeys Home",
    "lat": 42.08,
    "lng": -88.05,
    "zip": "60173",
    "address": "1140 E Northwest Hwy"
  },
  {
    "type": "jobs",
    "name": "Illinois WorkNet",
    "lat": 42.05,
    "lng": -87.9,
    "zip": "60056",
    "address": "Career Center"
  },

  {
    "id": 102,
    "type": "food",
    "name": "Wheeling Township Food Pantry",
    "lat": 42.103,
    "lng": -87.98,
    "zip": "60004",
    "city": "Arlington Heights, IL",
    "address": "1616 N Arlington Heights Rd",
    "phone": "847-259-7730",
    "website": "http://www.wheelingtownship.com/",
    "eligibility": "Free distribution (Cook County network)",
    "notes": "Regular pantry hours Tue–Thu; multiple service options"
  },
  {
    "id": 103,
    "type": "food",
    "name": "LCC Food Pantry",
    "lat": 42.062,
    "lng": -87.978,
    "zip": "60005",
    "city": "Arlington Heights, IL",
    "address": "Eat & Serve Drive / Call for locations",
    "phone": "847-437-5141",
    "website": "",
    "eligibility": "Free pantry for Arlington Heights, Des Plaines, Mt Prospect area",
    "notes": "Agency of Greater Chicago Food Depository; ID/proof of address recommended"
  },
  {
    "id": 104,
    "type": "food",
    "name": "Faith Feeds Food Pantry (Palatine)",
    "lat": 42.111,
    "lng": -88.01,
    "zip": "60074",
    "city": "Palatine, IL",
    "address": "1585 N Rand Rd",
    "phone": "630-615-8639",
    "website": "https://faithfeedsfp.org/get-food/",
    "eligibility": "Free food pantry and rotating mobile pantry",
    "notes": "Mobile pantry also distributes in Arlington Heights and Rolling Meadows areas"
  },
  {
    "id": 105,
    "type": "food",
    "name": "Schaumburg Township Food Pantry",
    "lat": 42.033,
    "lng": -88.081,
    "zip": "60169",
    "city": "Hoffman Estates, IL",
    "address": "1 Illinois Blvd",
    "phone": "847-732-7166",
    "website": "https://schaumburgtownship.org/services/food-pantry/",
    "eligibility": "Free pantry (pantry shopping via appointment)",
    "notes": "Staple food, items vary daily"
  },
  {
    "id": 106,
    "type": "food",
    "name": "Elk Grove Food Pantry",
    "lat": 42.028,
    "lng": -87.977,
    "zip": "60007",
    "city": "Elk Grove Village, IL",
    "address": "600 Landmeier Rd",
    "phone": "224-265-6111",
    "website": "",
    "eligibility": "Free pantry by appointment",
    "notes": "Appointments required; supports Elk Grove & NW suburbs"
  },
  {
    "id": 107,
    "type": "food",
    "name": "St Vincent De Paul - St Marcelline Church Pantry",
    "lat": 42.029,
    "lng": -88.004,
    "zip": "60193",
    "city": "Schaumburg, IL",
    "address": "820 S Springinsguth Rd",
    "phone": "847-524-9676",
    "website": "",
    "eligibility": "Free pantry service",
    "notes": "Part of St. Vincent de Paul network"
  },
  {
    "id": 108,
    "type": "food",
    "name": "Trinity Charities, Inc. Food Pantry",
    "lat": 42.054,
    "lng": -88.059,
    "zip": "60173",
    "city": "Schaumburg, IL",
    "address": "927 N Plum Grove Rd",
    "phone": "847-264-4660",
    "website": "",
    "eligibility": "Free emergency pantry",
    "notes": "Open Saturdays and emergency hours Tue–Fri"
  },
  {
    "id": 109,
    "type": "food",
    "name": "Schaumburg Township Self Help Pantry",
    "lat": 42.04,
    "lng": -88.059,
    "zip": "60173",
    "city": "Schaumburg, IL",
    "address": "600 E Algonquin Rd",
    "phone": "847-884-0030",
    "website": "",
    "eligibility": "Free pantry",
    "notes": "Serves Schaumburg Township residents"
  },
  {
    "id": 110,
    "type": "food",
    "name": "Palatine Township Food Pantry",
    "lat": 42.111,
    "lng": -88.033,
    "zip": "60074",
    "city": "Palatine, IL",
    "address": "721 S Quentin Rd",
    "phone": "847-358-6700",
    "website": "",
    "eligibility": "Free food pantry",
    "notes": "Available to Palatine Township residents"
  },
  {
    "id": 111,
    "type": "food",
    "name": "Journeys: The Road Home (Palatine)",
    "lat": 42.11,
    "lng": -88.034,
    "zip": "60074",
    "city": "Palatine, IL",
    "address": "1140 E Northwest Hwy",
    "phone": "847-963-9163",
    "website": "",
    "eligibility": "Food pantry & support services for families",
    "notes": "Requires registration but provides pantry groceries"
  },
  {
    "id": 112,
    "type": "food",
    "name": "Northwest Compass Food Connection Program",
    "lat": 42.062,
    "lng": -87.927,
    "zip": "60056",
    "city": "Mount Prospect, IL",
    "address": "1300 W Northwest Hwy",
    "phone": "847-392-2344",
    "website": "",
    "eligibility": "Emergency food assistance",
    "notes": "Pantry for Mount Prospect & surrounding area"
  },
  {
    "name": "St. Edna Food Pantry",
    "type": "food",
    "lat": 42.1,
    "lng": -87.98,
    "address": "Arlington Heights, IL",
    "zip": "60004",
    "hours": {
      "0": "Closed",
      "1": "09:00-17:00",
      "2": "09:00-17:00",
      "3": "09:00-20:00",
      "4": "09:00-17:00",
      "5": "09:00-17:00",
      "6": "10:00-14:00"
    }
  }
]
